[
  {
    "country": "Argentina",
    "city": "Buenos Aires",
    "hostname": "ar-bue.pvdata.host",
    "lat": -34.6037,
    "lng": -58.3816,
    "openvpn_tap_udp": 21000,
    "openvpn_tun_udp": 1194,
    "openvpn_tun_tcp": 443,
    "socks5_proxy": 1080,
  "http_proxy": 8080
  
  },
  {
    "country": "Australia",
    "city": "Brisbane",
    "hostname": "au-bri.pvdata.host",
    "lat": -27.4698,
    "lng": 153.0251,
    "openvpn_tap_udp": 21000,
    "openvpn_tun_udp": 1194,
    "openvpn_tun_tcp": 443,
    "socks5_proxy": 1080,
    "http_proxy": 8080
  },
  {
    "country": "Australia",
    "city": "Melbourne",
    "hostname": "au-mel.pvdata.host",
    "lat": -37.8136,
    "lng": 144.9631,
    "openvpn_tap_udp": 21000,
    "openvpn_tun_udp": 1194,
    "openvpn_tun_tcp": 443,
    "socks5_proxy": 1080,
    "http_proxy": 8080
  },
  {
    "country": "Australia",
    "city": "Perth",
    "hostname": "au-per.pvdata.host",
    "lat": -31.9523,
    "lng": 115.8613,
    "openvpn_tap_udp": 21000,
    "openvpn_tun_udp": 1194,
    "openvpn_tun_tcp": 443,
    "socks5_proxy": 1080,
    "http_proxy": 8080
  },
  {
    "country": "Australia",
    "city": "Sydney",
    "hostname": "au-syd.pvdata.host",
    "lat": -33.8688,
    "lng": 151.2093,
    "openvpn_tap_udp": 21000,
    "openvpn_tun_udp": 1194,
    "openvpn_tun_tcp": 443,
    "socks5_proxy": 1080,
    "http_proxy": 8080
  },
  {
    "country": "Austria",
    "city": "Wien",
    "hostname": "at-wie.pvdata.host",
    "lat": 48.2082,
    "lng": 16.3738,
    "openvpn_tap_udp": 21000,
    "openvpn_tun_udp": 1194,
    "openvpn_tun_tcp": 443,
    "socks5_proxy": 1080,
    "http_proxy": 8080
  },
  {
    "country": "Belgium",
    "city": "Brussels",
    "hostname": "be-bru.pvdata.host",
    "lat": 50.8503,
    "lng": 4.3517,
    "openvpn_tap_udp": 21000,
    "openvpn_tun_udp": 1194,
    "openvpn_tun_tcp": 443,
    "socks5_proxy": 1080,
    "http_proxy": 8080
  },
  {
    "country": "Brazil",
    "city": "Sao Paulo",
    "hostname": "br-sao.pvdata.host",
    "lat": -23.5505,
    "lng": -46.6333,
    "openvpn_tap_udp": 21000,
    "openvpn_tun_udp": 1194,
    "openvpn_tun_tcp": 443,
    "socks5_proxy": 1080,
    "http_proxy": 8080
  },
  {
    "country": "Bulgaria",
    "city": "Sofia",
    "hostname": "bg-sof.pvdata.host",
    "lat": 42.6977,
    "lng": 23.3219,
    "openvpn_tap_udp": 21000,
    "openvpn_tun_udp": 1194,
    "openvpn_tun_tcp": 443,
    "socks5_proxy": 1080,
    "http_proxy": 8080
  },
  {
    "country": "Canada",
    "city": "Montreal",
    "hostname": "ca-mon.pvdata.host",
    "lat": 45.5017,
    "lng": -73.5673,
    "openvpn_tap_udp": 21000,
    "openvpn_tun_udp": 1194,
    "openvpn_tun_tcp": 443,
    "socks5_proxy": 1080,
    "http_proxy": 8080
  },
  {
    "country": "Canada",
    "city": "Toronto",
    "hostname": "ca-tor.pvdata.host",
    "lat": 43.6532,
    "lng": -79.3832,
    "openvpn_tap_udp": 21000,
    "openvpn_tun_udp": 1194,
    "openvpn_tun_tcp": 443,
    "socks5_proxy": 1080,
    "http_proxy": 8080
  },
  {
    "country": "Canada",
    "city": "Vancouver",
    "hostname": "ca-van.pvdata.host",
    "lat": 49.2827,
    "lng": -123.1207,
    "openvpn_tap_udp": 21000,
    "openvpn_tun_udp": 1194,
    "openvpn_tun_tcp": 443,
    "socks5_proxy": 1080,
    "http_proxy": 8080
  },
  {
    "country": "Chile",
    "city": "Santiago",
    "hostname": "cl-san.pvdata.host",
    "lat": -33.4489,
    "lng": -70.6693,
    "openvpn_tap_udp": 21000,
    "openvpn_tun_udp": 1194,
    "openvpn_tun_tcp": 443,
    "socks5_proxy": 1080,
    "http_proxy": 8080
  },
  {
    "country": "Colombia",
    "city": "Bogotá",
    "hostname": "co-bog.pvdata.host",
    "lat": 4.711,
    "lng": -74.0721,
    "openvpn_tap_udp": 21000,
    "openvpn_tun_udp": 1194,
    "openvpn_tun_tcp": 443,
    "socks5_proxy": 1080,
    "http_proxy": 8080
  },
  {
    "country": "Costa Rica",
    "city": "San Jose",
    "hostname": "cr-san.pvdata.host",
    "lat": 9.9281,
    "lng": -84.0907,
    "openvpn_tap_udp": 21000,
    "openvpn_tun_udp": 1194,
    "openvpn_tun_tcp": 443,
    "socks5_proxy": 1080,
    "http_proxy": 8080
  },
  {
    "country": "Croatia",
    "city": "Zagreb",
    "hostname": "hr-zag.pvdata.host",
    "lat": 45.815,
    "lng": 15.9819,
    "openvpn_tap_udp": 21000,
    "openvpn_tun_udp": 1194,
    "openvpn_tun_tcp": 443,
    "socks5_proxy": 1080,
    "http_proxy": 8080
  },
  {
    "country": "Cyprus",
    "city": "Limassol",
    "hostname": "cy-lim.pvdata.host",
    "lat": 34.7071,
    "lng": 33.0226,
    "openvpn_tap_udp": 21000,
    "openvpn_tun_udp": 1194,
    "openvpn_tun_tcp": 443,
    "socks5_proxy": 1080,
    "http_proxy": 8080
  },
  {
    "country": "Czech Republic",
    "city": "Prague",
    "hostname": "cz-pra.pvdata.host",
    "lat": 50.0755,
    "lng": 14.4378,
    "openvpn_tap_udp": 21000,
    "openvpn_tun_udp": 1194,
    "openvpn_tun_tcp": 443,
    "socks5_proxy": 1080,
    "http_proxy": 8080
  },
  {
    "country": "Denmark",
    "city": "Copenhagen",
    "hostname": "dk-cop.pvdata.host",
    "lat": 55.6761,
    "lng": 12.5683,
    "openvpn_tap_udp": 21000,
    "openvpn_tun_udp": 1194,
    "openvpn_tun_tcp": 443,
    "socks5_proxy": 1080,
    "http_proxy": 8080
  },
  {
    "country": "Estonia",
    "city": "Tallinn",
    "hostname": "ee-tal.pvdata.host",
    "lat": 59.437,
    "lng": 24.7536,
    "openvpn_tap_udp": 21000,
    "openvpn_tun_udp": 1194,
    "openvpn_tun_tcp": 443,
    "socks5_proxy": 1080,
    "http_proxy": 8080
  },
  {
    "country": "Finland",
    "city": "Helsinki",
    "hostname": "fi-esp.pvdata.host",
    "lat": 60.1699,
    "lng": 24.9384,
    "openvpn_tap_udp": 21000,
    "openvpn_tun_udp": 1194,
    "openvpn_tun_tcp": 443,
    "socks5_proxy": 1080,
    "http_proxy": 8080
  },
  {
    "country": "France",
    "city": "Paris",
    "hostname": "fr-par.pvdata.host",
    "lat": 48.8566,
    "lng": 2.3522,
    "openvpn_tap_udp": 21000,
    "openvpn_tun_udp": 1194,
    "openvpn_tun_tcp": 443,
    "socks5_proxy": 1080,
    "http_proxy": 8080
  },
  {
    "country": "Germany",
    "city": "Berlin",
    "hostname": "de-ber.pvdata.host",
    "lat": 52.52,
    "lng": 13.405,
    "openvpn_tap_udp": 21000,
    "openvpn_tun_udp": 1194,
    "openvpn_tun_tcp": 443,
    "socks5_proxy": 1080,
    "http_proxy": 8080
  },
  {
    "country": "Germany",
    "city": "Frankfurt",
    "hostname": "de-fra.pvdata.host",
    "lat": 50.1109,
    "lng": 8.6821,
    "openvpn_tap_udp": 21000,
    "openvpn_tun_udp": 1194,
    "openvpn_tun_tcp": 443,
    "socks5_proxy": 1080,
    "http_proxy": 8080
  },
  {
    "country": "Greece",
    "city": "Athens",
    "hostname": "gr-ath.pvdata.host",
    "lat": 37.9838,
    "lng": 23.7275,
    "openvpn_tap_udp": 21000,
    "openvpn_tun_udp": 1194,
    "openvpn_tun_tcp": 443,
    "socks5_proxy": 1080,
    "http_proxy": 8080
  },
  {
    "country": "Hong Kong",
    "city": "Hong Kong",
    "hostname": "hk-hon.pvdata.host",
    "lat": 22.3193,
    "lng": 114.1694,
    "openvpn_tap_udp": 21000,
    "openvpn_tun_udp": 1194,
    "openvpn_tun_tcp": 443,
    "socks5_proxy": 1080,
    "http_proxy": 8080
  },
  {
    "country": "Hungary",
    "city": "Budapest",
    "hostname": "hu-bud.pvdata.host",
    "lat": 47.4979,
    "lng": 19.0402,
    "openvpn_tap_udp": 21000,
    "openvpn_tun_udp": 1194,
    "openvpn_tun_tcp": 443,
    "socks5_proxy": 1080,
    "http_proxy": 8080
  },
  {
    "country": "Iceland",
    "city": "Reykjavik",
    "hostname": "is-rey.pvdata.host",
    "lat": 64.1466,
    "lng": -21.9426,
    "openvpn_tap_udp": 21000,
    "openvpn_tun_udp": 1194,
    "openvpn_tun_tcp": 443,
    "socks5_proxy": 1080,
    "http_proxy": 8080
  },
  {
    "country": "India",
    "city": "Bangalore",
    "hostname": "in-ban.pvdata.host",
    "lat": 12.9716,
    "lng": 77.5946,
    "openvpn_tap_udp": 21000,
    "openvpn_tun_udp": 1194,
    "openvpn_tun_tcp": 443,
    "socks5_proxy": 1080,
    "http_proxy": 8080
  },
  {
    "country": "India",
    "city": "Mumbai",
    "hostname": "in-mum.pvdata.host",
    "lat": 19.076,
    "lng": 72.8777,
    "openvpn_tap_udp": 21000,
    "openvpn_tun_udp": 1194,
    "openvpn_tun_tcp": 443,
    "socks5_proxy": 1080,
    "http_proxy": 8080
  },
  {
    "country": "Indonesia",
    "city": "Jakarta",
    "hostname": "id-jak.pvdata.host",
    "lat": -6.2088,
    "lng": 106.8456,
    "openvpn_tap_udp": 21000,
    "openvpn_tun_udp": 1194,
    "openvpn_tun_tcp": 443,
    "socks5_proxy": 1080,
    "http_proxy": 8080
  },
  {
    "country": "Ireland",
    "city": "Dublin",
    "hostname": "ie-dub.pvdata.host",
    "lat": 53.3498,
    "lng": -6.2603,
    "openvpn_tap_udp": 21000,
    "openvpn_tun_udp": 1194,
    "openvpn_tun_tcp": 443,
    "socks5_proxy": 1080,
    "http_proxy": 8080
  },
  {
    "country": "Isle of Man",
    "city": "Ballasalla",
    "hostname": "im-bal.pvdata.host",
    "lat": 54.086,
    "lng": -4.639,
    "openvpn_tap_udp": 21000,
    "openvpn_tun_udp": 1194,
    "openvpn_tun_tcp": 443,
    "socks5_proxy": 1080,
    "http_proxy": 8080
  },
  {
    "country": "Israel",
    "city": "Tel Aviv",
    "hostname": "il-tel.pvdata.host",
    "lat": 32.0853,
    "lng": 34.7818,
    "openvpn_tap_udp": 21000,
    "openvpn_tun_udp": 1194,
    "openvpn_tun_tcp": 443,
    "socks5_proxy": 1080,
    "http_proxy": 8080
  },
  {
    "country": "Italy",
    "city": "Milan",
    "hostname": "it-mil.pvdata.host",
    "lat": 45.4642,
    "lng": 9.19,
    "openvpn_tap_udp": 21000,
    "openvpn_tun_udp": 1194,
    "openvpn_tun_tcp": 443,
    "socks5_proxy": 1080,
    "http_proxy": 8080
  },
  {
    "country": "Japan",
    "city": "Tokyo",
    "hostname": "jp-tok.pvdata.host",
    "lat": 35.6762,
    "lng": 139.6503,
    "openvpn_tap_udp": 21000,
    "openvpn_tun_udp": 1194,
    "openvpn_tun_tcp": 443,
    "socks5_proxy": 1080,
    "http_proxy": 8080
  },
  {
    "country": "Latvia",
    "city": "Riga",
    "hostname": "lv-rig.pvdata.host",
    "lat": 56.9496,
    "lng": 24.1052,
    "openvpn_tap_udp": 21000,
    "openvpn_tun_udp": 1194,
    "openvpn_tun_tcp": 443,
    "socks5_proxy": 1080,
    "http_proxy": 8080
  },
  {
    "country": "Lithuania",
    "city": "Siauliai",
    "hostname": "lt-sia.pvdata.host",
    "lat": 55.928,
    "lng": 23.315,
    "openvpn_tap_udp": 21000,
    "openvpn_tun_udp": 1194,
    "openvpn_tun_tcp": 443,
    "socks5_proxy": 1080,
    "http_proxy": 8080
  },
  {
    "country": "Luxembourg",
    "city": "Luxembourg City",
    "hostname": "lu-lux.pvdata.host",
    "lat": 49.6116,
    "lng": 6.1319,
    "openvpn_tap_udp": 21000,
    "openvpn_tun_udp": 1194,
    "openvpn_tun_tcp": 443,
    "socks5_proxy": 1080,
    "http_proxy": 8080
  },
  {
    "country": "Malaysia",
    "city": "Kuala Lumpur",
    "hostname": "my-kua.pvdata.host",
    "lat": 3.139,
    "lng": 101.6869,
    "openvpn_tap_udp": 21000,
    "openvpn_tun_udp": 1194,
    "openvpn_tun_tcp": 443,
    "socks5_proxy": 1080,
    "http_proxy": 8080
  },
  {
    "country": "Malta",
    "city": "Qormi",
    "hostname": "mt-qor.pvdata.host",
    "lat": 35.876,
    "lng": 14.4684,
    "openvpn_tap_udp": 21000,
    "openvpn_tun_udp": 1194,
    "openvpn_tun_tcp": 443,
    "socks5_proxy": 1080,
    "http_proxy": 8080
  },
  {
    "country": "Mexico",
    "city": "Mexico City",
    "hostname": "mx-mex.pvdata.host",
    "lat": 19.4326,
    "lng": -99.1332,
    "openvpn_tap_udp": 21000,
    "openvpn_tun_udp": 1194,
    "openvpn_tun_tcp": 443,
    "socks5_proxy": 1080,
    "http_proxy": 8080
  },
  {
    "country": "Moldova",
    "city": "Chisinau",
    "hostname": "md-chi.pvdata.host",
    "lat": 47.0105,
    "lng": 28.8638,
    "openvpn_tap_udp": 21000,
    "openvpn_tun_udp": 1194,
    "openvpn_tun_tcp": 443,
    "socks5_proxy": 1080,
    "http_proxy": 8080
  },
  {
    "country": "Netherlands",
    "city": "Amsterdam",
    "hostname": "nl-ams.pvdata.host",
    "lat": 52.3676,
    "lng": 4.9041,
    "openvpn_tap_udp": 21000,
    "openvpn_tun_udp": 1194,
    "openvpn_tun_tcp": 443,
    "socks5_proxy": 1080,
    "http_proxy": 8080
  },
  {
    "country": "New Zealand",
    "city": "Auckland",
    "hostname": "nz-auc.pvdata.host",
    "lat": -36.8485,
    "lng": 174.7633,
    "openvpn_tap_udp": 21000,
    "openvpn_tun_udp": 1194,
    "openvpn_tun_tcp": 443,
    "socks5_proxy": 1080,
    "http_proxy": 8080
  },
  {
    "country": "Nigeria",
    "city": "Lagos",
    "hostname": "ng-lag.pvdata.host",
    "lat": 6.5244,
    "lng": 3.3792,
    "openvpn_tap_udp": 21000,
    "openvpn_tun_udp": 1194,
    "openvpn_tun_tcp": 443,
    "socks5_proxy": 1080,
    "http_proxy": 8080
  },
  {
    "country": "Norway",
    "city": "Oslo",
    "hostname": "no-osl.pvdata.host",
    "lat": 59.9139,
    "lng": 10.7522,
    "openvpn_tap_udp": 21000,
    "openvpn_tun_udp": 1194,
    "openvpn_tun_tcp": 443,
    "socks5_proxy": 1080,
    "http_proxy": 8080
  },
  {
    "country": "Panama",
    "city": "Panama City",
    "hostname": "pa-pan.pvdata.host",
    "lat": 8.9824,
    "lng": -79.5199,
    "openvpn_tap_udp": 21000,
    "openvpn_tun_udp": 1194,
    "openvpn_tun_tcp": 443,
    "socks5_proxy": 1080,
    "http_proxy": 8080
  },
  {
    "country": "Peru",
    "city": "Lima",
    "hostname": "pe-lim.pvdata.host",
    "lat": -12.0464,
    "lng": -77.0428,
    "openvpn_tap_udp": 21000,
    "openvpn_tun_udp": 1194,
    "openvpn_tun_tcp": 443,
    "socks5_proxy": 1080,
    "http_proxy": 8080
  },
  {
    "country": "Philippines",
    "city": "Manila",
    "hostname": "ph-man.pvdata.host",
    "lat": 14.5995,
    "lng": 120.9842,
    "openvpn_tap_udp": 21000,
    "openvpn_tun_udp": 1194,
    "openvpn_tun_tcp": 443,
    "socks5_proxy": 1080,
    "http_proxy": 8080
  },
  {
    "country": "Poland",
    "city": "Torun",
    "hostname": "pl-tor.pvdata.host",
    "lat": 53.0138,
    "lng": 18.5984,
    "openvpn_tap_udp": 21000,
    "openvpn_tun_udp": 1194,
    "openvpn_tun_tcp": 443,
    "socks5_proxy": 1080,
    "http_proxy": 8080
  },
  {
    "country": "Portugal",
    "city": "Lisbon",
    "hostname": "pt-lis.pvdata.host",
    "lat": 38.7223,
    "lng": -9.1393,
    "openvpn_tap_udp": 21000,
    "openvpn_tun_udp": 1194,
    "openvpn_tun_tcp": 443,
    "socks5_proxy": 1080,
    "http_proxy": 8080
  },
  {
    "country": "Romania",
    "city": "Bukarest",
    "hostname": "ro-buk.pvdata.host",
    "lat": 44.4268,
    "lng": 26.1025,
    "openvpn_tap_udp": 21000,
    "openvpn_tun_udp": 1194,
    "openvpn_tun_tcp": 443,
    "socks5_proxy": 1080,
    "http_proxy": 8080
  },
  {
    "country": "Serbia",
    "city": "Belgrade",
    "hostname": "rs-bel.pvdata.host",
    "lat": 44.8125,
    "lng": 20.4612,
    "openvpn_tap_udp": 21000,
    "openvpn_tun_udp": 1194,
    "openvpn_tun_tcp": 443,
    "socks5_proxy": 1080,
    "http_proxy": 8080
  },
  {
    "country": "Singapore",
    "city": "Singapore",
    "hostname": "sg-sin.pvdata.host",
    "lat": 1.3521,
    "lng": 103.8198,
    "openvpn_tap_udp": 21000,
    "openvpn_tun_udp": 1194,
    "openvpn_tun_tcp": 443,
    "socks5_proxy": 1080,
    "http_proxy": 8080
  },
  {
    "country": "Slovakia",
    "city": "Bratislava",
    "hostname": "sk-bra.pvdata.host",
    "lat": 48.1486,
    "lng": 17.1077,
    "openvpn_tap_udp": 21000,
    "openvpn_tun_udp": 1194,
    "openvpn_tun_tcp": 443,
    "socks5_proxy": 1080,
    "http_proxy": 8080
  },
  {
    "country": "South Africa",
    "city": "Johannesburg",
    "hostname": "za-joh.pvdata.host",
    "lat": -26.2041,
    "lng": 28.0473,
    "openvpn_tap_udp": 21000,
    "openvpn_tun_udp": 1194,
    "openvpn_tun_tcp": 443,
    "socks5_proxy": 1080,
    "http_proxy": 8080
  },
  {
    "country": "South Korea",
    "city": "Seoul",
    "hostname": "kr-seo.pvdata.host",
    "lat": 37.5665,
    "lng": 126.978,
    "openvpn_tap_udp": 21000,
    "openvpn_tun_udp": 1194,
    "openvpn_tun_tcp": 443,
    "socks5_proxy": 1080,
    "http_proxy": 8080
  },
  {
    "country": "Spain",
    "city": "Madrid",
    "hostname": "es-mad.pvdata.host",
    "lat": 40.4168,
    "lng": -3.7038,
    "openvpn_tap_udp": 21000,
    "openvpn_tun_udp": 1194,
    "openvpn_tun_tcp": 443,
    "socks5_proxy": 1080,
    "http_proxy": 8080
  },
  {
    "country": "Sweden",
    "city": "Gothenburg",
    "hostname": "se-got.pvdata.host",
    "lat": 57.7089,
    "lng": 11.9746,
    "openvpn_tap_udp": 21000,
    "openvpn_tun_udp": 1194,
    "openvpn_tun_tcp": 443,
    "socks5_proxy": 1080,
    "http_proxy": 8080
  },
  {
    "country": "Sweden",
    "city": "Kista",
    "hostname": "se-kis.pvdata.host",
    "lat": 59.4032,
    "lng": 17.9449,
    "openvpn_tap_udp": 21000,
    "openvpn_tun_udp": 1194,
    "openvpn_tun_tcp": 443,
    "socks5_proxy": 1080,
    "http_proxy": 8080
  },
  {
    "country": "Sweden",
    "city": "Stockholm",
    "hostname": "se-sto.pvdata.host",
    "lat": 59.3293,
    "lng": 18.0686,
    "openvpn_tap_udp": 21000,
    "openvpn_tun_udp": 1194,
    "openvpn_tun_tcp": 443,
    "socks5_proxy": 1080,
    "http_proxy": 8080
  },
  {
    "country": "Switzerland",
    "city": "Zürich",
    "hostname": "ch-zur.pvdata.host",
    "lat": 47.3769,
    "lng": 8.5417,
    "openvpn_tap_udp": 21000,
    "openvpn_tun_udp": 1194,
    "openvpn_tun_tcp": 443,
    "socks5_proxy": 1080,
    "http_proxy": 8080
  },
  {
    "country": "Taiwan",
    "city": "Taipei",
    "hostname": "tw-tai.pvdata.host",
    "lat": 25.033,
    "lng": 121.5654,
    "openvpn_tap_udp": 21000,
    "openvpn_tun_udp": 1194,
    "openvpn_tun_tcp": 443,
    "socks5_proxy": 1080,
    "http_proxy": 8080
  },
  {
    "country": "Thailand",
    "city": "Bangkok",
    "hostname": "th-ban.pvdata.host",
    "lat": 13.7563,
    "lng": 100.5018,
    "openvpn_tap_udp": 21000,
    "openvpn_tun_udp": 1194,
    "openvpn_tun_tcp": 443,
    "socks5_proxy": 1080,
    "http_proxy": 8080
  },
  {
    "country": "Turkey",
    "city": "Istanbul",
    "hostname": "tr-ist.pvdata.host",
    "lat": 41.0082,
    "lng": 28.9784,
    "openvpn_tap_udp": 21000,
    "openvpn_tun_udp": 1194,
    "openvpn_tun_tcp": 443,
    "socks5_proxy": 1080,
    "http_proxy": 8080
  },
  {
    "country": "Ukraine",
    "city": "Nikolaev",
    "hostname": "ua-nik.pvdata.host",
    "lat": 46.975,
    "lng": 31.9946,
    "openvpn_tap_udp": 21000,
    "openvpn_tun_udp": 1194,
    "openvpn_tun_tcp": 443,
    "socks5_proxy": 1080,
    "http_proxy": 8080
  },
  {
    "country": "United Arab Emirates",
    "city": "Dubai",
    "hostname": "ae-dub.pvdata.host",
    "lat": 25.2048,
    "lng": 55.2708,
    "openvpn_tap_udp": 21000,
    "openvpn_tun_udp": 1194,
    "openvpn_tun_tcp": 443,
    "socks5_proxy": 1080,
    "http_proxy": 8080
  },
  {
    "country": "United Kingdom",
    "city": "London",
    "hostname": "uk-lon.pvdata.host",
    "lat": 51.5074,
    "lng": -0.1278,
    "openvpn_tap_udp": 21000,
    "openvpn_tun_udp": 1194,
    "openvpn_tun_tcp": 443,
    "socks5_proxy": 1080,
    "http_proxy": 8080
  },
  {
    "country": "United Kingdom",
    "city": "Manchester",
    "hostname": "uk-man.pvdata.host",
    "lat": 53.4808,
    "lng": -2.2426,
    "openvpn_tap_udp": 21000,
    "openvpn_tun_udp": 1194,
    "openvpn_tun_tcp": 443,
    "socks5_proxy": 1080,
    "http_proxy": 8080
  },
  {
    "country": "United States",
    "city": "Atlanta",
    "hostname": "us-atl.pvdata.host",
    "lat": 33.749,
    "lng": -84.388,
    "openvpn_tap_udp": 21000,
    "openvpn_tun_udp": 1194,
    "openvpn_tun_tcp": 443,
    "socks5_proxy": 1080,
    "http_proxy": 8080
  },
  {
    "country": "United States",
    "city": "Buffalo",
    "hostname": "us-buf.pvdata.host",
    "lat": 42.8864,
    "lng": -78.8784,
    "openvpn_tap_udp": 21000,
    "openvpn_tun_udp": 1194,
    "openvpn_tun_tcp": 443,
    "socks5_proxy": 1080,
    "http_proxy": 8080
  },
  {
    "country": "United States",
    "city": "Chicago",
    "hostname": "us-chi.pvdata.host",
    "lat": 41.8781,
    "lng": -87.6298,
    "openvpn_tap_udp": 21000,
    "openvpn_tun_udp": 1194,
    "openvpn_tun_tcp": 443,
    "socks5_proxy": 1080,
    "http_proxy": 8080
  },
  {
    "country": "United States",
    "city": "Dallas",
    "hostname": "us-dal.pvdata.host",
    "lat": 32.7767,
    "lng": -96.797,
    "openvpn_tap_udp": 21000,
    "openvpn_tun_udp": 1194,
    "openvpn_tun_tcp": 443,
    "socks5_proxy": 1080,
    "http_proxy": 8080
  },
  {
    "country": "United States",
    "city": "Denver",
    "hostname": "us-den.pvdata.host",
    "lat": 39.7392,
    "lng": -104.9903,
    "openvpn_tap_udp": 21000,
    "openvpn_tun_udp": 1194,
    "openvpn_tun_tcp": 443,
    "socks5_proxy": 1080,
    "http_proxy": 8080
  },
  {
    "country": "United States",
    "city": "Las Vegas",
    "hostname": "us-las.pvdata.host",
    "lat": 36.1699,
    "lng": -115.1398,
    "openvpn_tap_udp": 21000,
    "openvpn_tun_udp": 1194,
    "openvpn_tun_tcp": 443,
    "socks5_proxy": 1080,
    "http_proxy": 8080
  },
  {
    "country": "United States",
    "city": "Los Angeles",
    "hostname": "us-los.pvdata.host",
    "lat": 34.0522,
    "lng": -118.2437,
    "openvpn_tap_udp": 21000,
    "openvpn_tun_udp": 1194,
    "openvpn_tun_tcp": 443,
    "socks5_proxy": 1080,
    "http_proxy": 8080
  },
  {
    "country": "United States",
    "city": "Miami",
    "hostname": "us-mia.pvdata.host",
    "lat": 25.7617,
    "lng": -80.1918,
    "openvpn_tap_udp": 21000,
    "openvpn_tun_udp": 1194,
    "openvpn_tun_tcp": 443,
    "socks5_proxy": 1080,
    "http_proxy": 8080
  },
  {
    "country": "United States",
    "city": "New Jersey",
    "hostname": "us-jer.pvdata.host",
    "lat": 40.7357,
    "lng": -74.1724,
    "openvpn_tap_udp": 21000,
    "openvpn_tun_udp": 1194,
    "openvpn_tun_tcp": 443,
    "socks5_proxy": 1080,
    "http_proxy": 8080
  },
  {
    "country": "United States",
    "city": "New York",
    "hostname": "us-nyc.pvdata.host",
    "lat": 40.7128,
    "lng": -74.006,
    "openvpn_tap_udp": 21000,
    "openvpn_tun_udp": 1194,
    "openvpn_tun_tcp": 443,
    "socks5_proxy": 1080,
    "http_proxy": 8080
  },
  {
    "country": "United States",
    "city": "Phoenix",
    "hostname": "us-pho.pvdata.host",
    "lat": 33.4484,
    "lng": -112.074,
    "openvpn_tap_udp": 21000,
    "openvpn_tun_udp": 1194,
    "openvpn_tun_tcp": 443,
    "socks5_proxy": 1080,
    "http_proxy": 8080
  },
  {
    "country": "United States",
    "city": "Seattle",
    "hostname": "us-sea.pvdata.host",
    "lat": 47.6062,
    "lng": -122.3321,
    "openvpn_tap_udp": 21000,
    "openvpn_tun_udp": 1194,
    "openvpn_tun_tcp": 443,
    "socks5_proxy": 1080,
    "http_proxy": 8080
  },
  {
    "country": "Vietnam",
    "city": "Ho Chi Minh City",
    "hostname": "vn-hoc.pvdata.host",
    "lat": 10.8231,
    "lng": 106.6297,
    "openvpn_tap_udp": 21000,
    "openvpn_tun_udp": 1194,
    "openvpn_tun_tcp": 443,
    "socks5_proxy": 1080,
    "http_proxy": 8080
  }
]